[[sample]]
lat = 35.139
lon = 33.2757
h = 222.035
a = 212
zb = 10.01
hb = 16
z0 = 9.52
h0 = 14
t = 3.5
name = "ELENA P"
exp = 1

[[sample]]
lat = 34.722
lon = 33.0807
h = 70.5072
a = 314
hb = 27
z0 = 3.37
h0 = 34
t = 1.5
name = "Georgia C"
exp = 1

[[sample]]
lat = 34.6932
lon = 33.0239
h = 46.4183
a = 129
zb = 6.19
hb = 24
z0 = 297.98
t = 1.5
name = "Maria P"
exp = 1

[[sample]]
lat = 35.0033
lon = 34.0035
h = 113.357
a = 98
zb = 165.72
hb = 41
z0 = 174.66
h0 = 31
t = 1
name = "Georgia H"
exp = 1

[[sample]]
lat = 32.8218
lon = 35.1901
h = 127.315
a = 194
zb = 30.43
hb = 90
z0 = 337.92
h0 = 27
t = 3.5
name = "Irena H"
exp = 3

