[[sample]]
lat = -24.6225
lon = 25.9158
h = 1006.66
a = 200
zb = 332
hb = 55
t = 3.5
name = "Dhiraj S"
exp = 1

[[sample]]
lat = -24.7388
lon = 25.8161
h = 1064.49
a = 192
hb = 45
t = 3.5
name = "Natalie W"
exp = 1

[[sample]]
lat = -33.9654
lon = 25.5984
h = 77.3941
a = 113
t = 3.5
name = "Hentia S"
exp = 1

[[sample]]
lat = -25.7646
lon = 29.4694
h = 1450.86
a = 238
hb = 17
z0 = 358.8
h0 = 10
t = 7.5
name = "Gerds B"
exp = 1

[[sample]]
lat = -19.3669
lon = 23.0452
h = 957.01
a = 111
hb = 30
z0 = 166.95
h0 = 10
t = 3.5
name = "Kyra R"
exp = 1

[[sample]]
lat = -21.3157
lon = 25.4238
h = 956.975
a = 180
zb = 307.66
hb = 45
z0 = 311.72
h0 = 10
t = 7.5
name = "Deon W"
exp = 1

[[sample]]
lat = -23.5224
lon = 26.599
h = 973.454
a = 215
zb = 280
hb = 15
z0 = 280
h0 = 11
t = 3.5
name = "One M"
exp = 1

[[sample]]
lat = -21.4845
lon = 24.0093
h = 957.11
a = 249
zb = 290
hb = 45
z0 = 290
h0 = 30
t = 1.5
name = "Brian H"
exp = 1

[[sample]]
lat = -19.4135
lon = 23.9199
h = 945.95
a = 111
hb = 20
h0 = 20
t = 3.5
name = "Madeleine S"
exp = 1

[[sample]]
lat = -21.529
lon = 23.204
h = 1002.94
a = 270
zb = 144.81
hb = 70
z0 = 46.02
h0 = 70
t = 3.5
name = "Kobus C"
exp = 1

[[sample]]
lat = -21.5922
lon = 23.2365
h = 996.99
a = 256
zb = 51.69
hb = 46
z0 = 265.41
h0 = 25
t = 3.5
name = "Carli V"
exp = 1

[[sample]]
lat = -24.8078
lon = 26.3079
h = 1076.32
a = 70
zb = 285.6
hb = 19
t = 3.5
name = "mami o"
exp = 1

[[sample]]
lat = -25.797
lon = 28.4708
h = 1475.66
a = 117
zb = 354.8
hb = 45
z0 = 14.17
h0 = 2
t = 7.5
name = "Marilise H"
exp = 2

[[sample]]
lat = -27.7047
lon = 23.0618
h = 1235.33
a = 190
zb = 20.8
z0 = 5.44
t = 3.5
name = "Christian G"
exp = 2

[[sample]]
lat = -20.0955
lon = 24.8093
h = 928.896
a = 110
zb = 190
hb = 45
z0 = 220
h0 = 18
t = 3.5
name = "David Grant L"
exp = 2

[[sample]]
lat = -19.9628
lon = 23.4601
h = 940.036
a = 110
zb = 130
hb = 43
z0 = 210
h0 = 15
t = 7.5
name = "Diane W"
exp = 2

[[sample]]
lat = -25.4859
lon = 30.8866
h = 834.439
a = 262
zb = 345.35
hb = 27
z0 = 327.54
h0 = 24
t = 1.5
name = "Michael C"
exp = 2

[[sample]]
lat = -19.6534
lon = 23.8808
h = 943.294
a = 115
zb = 130
hb = 45
z0 = 220
h0 = 13
t = 7.5
name = "Desiree S"
exp = 2

[[sample]]
lat = -23.8999
lon = 25.7963
h = 1143.1
a = 244
zb = 357.67
hb = 30
z0 = 302.2
t = 7.5
name = "Wayne d"
exp = 2

[[sample]]
lat = -19.3068
lon = 22.9043
h = 961.254
a = 105
zb = 261.28
hb = 75
z0 = 10
h0 = 10
t = 3.5
name = "Marsha G"
exp = 2

[[sample]]
lat = -18.8887
lon = 22.6068
h = 977.488
a = 118
zb = 99.81
hb = 57
z0 = 99.03
h0 = 45
t = 3.5
name = "Lauren O"
exp = 2

[[sample]]
lat = -19.1238
lon = 23.8001
h = 937.688
a = 99
hb = 31
h0 = 27
t = 1
name = "Richard S"
exp = 2

[[sample]]
lat = -24.7384
lon = 25.816
h = 1063.58
a = 227
zb = 133.49
hb = 17
z0 = 94.76
t = 3.5
name = "Nancy M"
exp = 3

[[sample]]
lat = -26.753
lon = 26.1883
h = 1600.79
a = 124
zb = 341
hb = 20
z0 = 332
h0 = 1
t = 3.5
name = "Barend S"
exp = 5

[[sample]]
lat = -26.1542
lon = 27.6799
h = 1679.47
a = 258
zb = 333
hb = 30
z0 = 323.6
h0 = 15
t = 3.5
name = "Anonymous A"
exp = 5

[[sample]]
lat = -26.7229
lon = 22.3395
h = 951.957
a = 257
zb = 25
hb = 20
z0 = 5
t = 3.5
name = "Org D"
exp = 5

[[sample]]
lat = -24.6459
lon = 25.8157
h = 1054.87
a = 251
zb = 325
hb = 21
z0 = 310
t = 3.5
name = "Beverly L"
exp = 5

[answer]
lat = -21.2
lon = 23.3
h = 28700
vx = 0.9
vy = -16.4
vz = 3.9
