[[sample]]
lat = 34.1634
lon = -112.136
h = 1024.23
a = 278
hb = 49
z0 = 310.52
h0 = 24
t = 3.5
name = "Blythe N"
exp = 1

[[sample]]
lat = 33.8682
lon = -111.826
h = 1025.07
a = 245
hb = 43
h0 = 18
t = 3.5
name = "Rebecca D"
exp = 1

[[sample]]
lat = 33.7082
lon = -112.109
h = 437.497
a = 242
zb = 344.88
hb = 48
z0 = 339.24
h0 = 59
t = 3.5
name = "Darin H"
exp = 1

[[sample]]
lat = 33.3757
lon = -111.751
h = 382.24
a = 263
hb = 40
z0 = 302.05
h0 = 25
t = 3.5
name = "Christina W"
exp = 1

[[sample]]
lat = 33.6835
lon = -112.135
h = 418.691
a = 253
zb = 12.56
hb = 33
z0 = 312.03
h0 = 9
t = 20
name = "Lisa S"
exp = 1

[[sample]]
lat = 34.8741
lon = -111.799
h = 1387.9
a = 209
zb = 279.52
hb = 65
z0 = 276.45
h0 = 25
t = 3.5
name = "Leanne W"
exp = 1

[[sample]]
lat = 33.4968
lon = -111.9
h = 380.697
a = 218
zb = 340.49
hb = 42
z0 = 313.14
h0 = 1
t = 3.5
name = "Linda R"
exp = 1

[[sample]]
lat = 33.2864
lon = -111.859
h = 369.474
a = 250
zb = 344.2
hb = 42
z0 = 317.05
h0 = 33
t = 7.5
name = "Tanya S"
exp = 1

[[sample]]
lat = 34.1072
lon = -112.827
h = 854.76
a = 268
zb = 78.5
hb = 12
z0 = 29.27
h0 = 12
t = 3.5
name = "David F"
exp = 1

[[sample]]
lat = 33.4953
lon = -112.1
h = 339.684
a = 95
zb = 11.84
hb = 20
z0 = 341.19
h0 = 19
t = 3.5
name = "Anthony R"
exp = 1

[[sample]]
lat = 33.809
lon = -112.117
h = 544.196
a = 261
zb = 29.72
hb = 26
z0 = 300.41
h0 = 18
t = 7.5
name = "Karen B"
exp = 1

[[sample]]
lat = 35.2222
lon = -111.605
h = 2133
a = 111
zb = 164.01
hb = 20
z0 = 264.37
h0 = 10
t = 3.5
name = "Shannon C"
exp = 1

[[sample]]
lat = 33.2502
lon = -111.564
h = 450.816
a = 244
zb = 2.02
hb = 31
h0 = 7
t = 3.5
name = "Jessica J"
exp = 1

[[sample]]
lat = 33.4071
lon = -111.875
h = 369.251
a = 275
zb = 13.43
hb = 60
z0 = 326.64
h0 = 60
t = 3.5
name = "Roy M"
exp = 1

[[sample]]
lat = 33.6943
lon = -112.284
h = 394.768
a = 255
zb = 5.9
hb = 50
z0 = 0.4
h0 = 40
t = 3.5
name = "Lisa G"
exp = 1

[[sample]]
lat = 33.7833
lon = -111.976
h = 597.559
a = 244
zb = 11.15
hb = 45
z0 = 359.67
h0 = 45
t = 3.5
name = "Lara B"
exp = 1

[[sample]]
lat = 33.7278
lon = -111.859
h = 776.233
a = 271
zb = 323.27
hb = 48
z0 = 301.56
h0 = 38
t = 1.5
name = "Anna C"
exp = 1

[[sample]]
lat = 33.2903
lon = -111.868
h = 366.753
a = 95
zb = 16.92
hb = 45
z0 = 325.19
h0 = 35
t = 7.5
name = "Connie G"
exp = 1

[[sample]]
lat = 35.2782
lon = -111.421
h = 1947.96
a = 109
zb = 240.06
hb = 45
z0 = 305.85
h0 = 25
t = 7.5
name = "Denise E"
exp = 1

[[sample]]
lat = 34.4152
lon = -110.577
h = 2010.74
a = 244
zb = 247.26
hb = 41
z0 = 235.64
h0 = 48
t = 3.5
name = "Jodi B"
exp = 1

[[sample]]
lat = 33.3035
lon = -111.972
h = 362.335
a = 266
zb = 18
hb = 49
z0 = 338.54
h0 = 38
t = 3.5
name = "Dan F"
exp = 1

[[sample]]
lat = 33.6849
lon = -112.511
h = 445.695
a = 220
zb = 1
hb = 33
z0 = 344.09
h0 = 19
t = 3.5
name = "Diana B"
exp = 1

[[sample]]
lat = 33.3649
lon = -111.989
h = 426.81
a = 259
zb = 55.94
hb = 1
z0 = 313.22
h0 = 14
t = 7.5
name = "Theresa M"
exp = 1

[[sample]]
lat = 33.2183
lon = -111.858
h = 367.158
a = 265
zb = 300.88
hb = 1
z0 = 293.73
h0 = 45
t = 3.5
name = "Melvin G"
exp = 1

[[sample]]
lat = 32.0947
lon = -112.771
h = 596.897
a = 249
zb = 350
hb = 14
z0 = 345
h0 = 13
t = 1.5
name = "Brian B"
exp = 1

[[sample]]
lat = 33.4337
lon = -111.925
h = 358.125
a = 85
zb = 31.25
z0 = 291.72
h0 = 15
t = 3.5
name = "wayne c"
exp = 1

[[sample]]
lat = 33.6701
lon = -112.113
h = 421.06
a = 268
zb = 46.83
hb = 42
z0 = 306.19
h0 = 28
t = 3.5
name = "Brian B"
exp = 1

[[sample]]
lat = 34.3758
lon = -111.467
h = 1701.7
a = 43
zb = 306.17
hb = 46
z0 = 297.21
h0 = 4
t = 1.5
name = "Brian B"
exp = 1

[[sample]]
lat = 33.4297
lon = -111.708
h = 424.666
a = 260
zb = 37.87
hb = 43
z0 = 6.76
h0 = 24
t = 7.5
name = "Marsha R"
exp = 1

[[sample]]
lat = 33.6405
lon = -111.996
h = 447.604
a = 255
zb = 3.35
hb = 48
z0 = 351.34
h0 = 50
t = 3.5
name = "Amanda P"
exp = 1

[[sample]]
lat = 33.6818
lon = -111.977
h = 493.165
a = 244
zb = 323.22
hb = 42
z0 = 321.61
h0 = 43
t = 3.5
name = "Mel S"
exp = 1

[[sample]]
lat = 33.7101
lon = -111.701
h = 539.549
a = 283
zb = 299.33
hb = 44
z0 = 344.1
h0 = 63
t = 20
name = "Tania D"
exp = 1

[[sample]]
lat = 33.6115
lon = -112.243
h = 356.381
a = 264
zb = 232.25
hb = 36
h0 = 27
t = 20
name = "Melanie G"
exp = 1

[[sample]]
lat = 33.8631
lon = -112.145
h = 560.285
a = 260
zb = 8.8
hb = 47
z0 = 341.67
h0 = 30
t = 3.5
name = "Susie Z"
exp = 1

[[sample]]
lat = 34.34
lon = -110.337
h = 1970.2
a = 249
hb = 34
z0 = 280
h0 = 36
t = 1.5
name = "Tracy L"
exp = 1

[[sample]]
lat = 33.6396
lon = -112.186
h = 383.293
a = 255
zb = 36.44
hb = 54
z0 = 335.22
h0 = 42
t = 20
name = "Sean R"
exp = 1

[[sample]]
lat = 33.3663
lon = -112.071
h = 382.179
a = 256
t = 3.5
name = "Karen H"
exp = 1

[[sample]]
lat = 35.2571
lon = -111.511
h = 1994.17
a = 143
zb = 245.35
hb = 37
z0 = 256.93
h0 = 35
t = 3.5
name = "Kevin G"
exp = 1

[[sample]]
lat = 34.8856
lon = -112.468
h = 18
hb = 45
z0 = 300
h0 = 45
name = "Kimberly P"
exp = 1

[[sample]]
lat = 33.5046
lon = -112.29
h = 313.821
a = 265
zb = 8.45
hb = 30
z0 = 338.76
h0 = 27
t = 3.5
name = "Andy W"
exp = 2

[[sample]]
lat = 33.3636
lon = -111.963
h = 381.909
a = 280
hb = 30
z0 = 290
h0 = 35
t = 7.5
name = "Alan R"
exp = 2

[[sample]]
lat = 34.5588
lon = -111.853
h = 947.932
a = 252
zb = 277.9
hb = 45
z0 = 287.65
h0 = 45
t = 3.5
name = "jack s"
exp = 2

[[sample]]
lat = 33.6883
lon = -112.377
h = 398.463
a = 262
zb = 45
hb = 28
z0 = 340
h0 = 15
t = 7.5
name = "Mairi F"
exp = 2

[[sample]]
lat = 33.372
lon = -111.968
h = 383.991
a = 258
zb = 18.25
hb = 30
z0 = 309.32
h0 = 21
t = 7.5
name = "Michael D"
exp = 2

[[sample]]
lat = 33.5818
lon = -112.013
h = 435.841
a = 266
zb = 15
hb = 40
z0 = 345
h0 = 32
t = 7.5
name = "Croix W"
exp = 2

[[sample]]
lat = 33.4413
lon = -111.544
h = 553.467
a = 257
zb = 353.94
hb = 35
z0 = 347.45
h0 = 37
t = 3.5
name = "Cameron K"
exp = 2

[[sample]]
lat = 33.727
lon = -112.247
h = 432.339
a = 258
hb = 31
z0 = 147.77
h0 = 10
t = 7.5
name = "Ray C"
exp = 2

[[sample]]
lat = 33.5033
lon = -112.417
h = 324.635
a = 228
zb = 0.88
hb = 59
z0 = 354.09
h0 = 23
t = 3.5
name = "Shon W"
exp = 2

[[sample]]
lat = 33.6236
lon = -112.252
h = 359.144
a = 228
hb = 46
z0 = 285.71
h0 = 47
t = 3.5
name = "Leighanne B"
exp = 2

[[sample]]
lat = 33.5799
lon = -112.418
h = 368.007
a = 254
zb = 32.19
hb = 47
z0 = 350.89
h0 = 47
t = 7.5
name = "Nicole R"
exp = 2

[[sample]]
lat = 34.2458
lon = -111.349
h = 1500.56
a = 272
hb = 49
h0 = 47
t = 7.5
name = "Keith T"
exp = 2

[[sample]]
lat = 33.7425
lon = -111.692
h = 530.131
a = 70
hb = 23
h0 = 27
t = 7.5
name = "Julie B"
exp = 2

[[sample]]
lat = 34.7691
lon = -111.772
h = 1220.3
a = 175
zb = 302.81
hb = 64
z0 = 302
h0 = 57
t = 3.5
name = "Claudia E"
exp = 2

[[sample]]
lat = 33.7734
lon = -111.787
h = 784.59
a = 257
hb = 45
z0 = 41.66
h0 = 45
t = 3.5
name = "Richard D"
exp = 2

[[sample]]
lat = 33.5925
lon = -111.787
h = 526.339
a = 254
hb = 43
z0 = 317.92
h0 = 27
t = 3.5
name = "Richard D"
exp = 2

[[sample]]
lat = 33.4979
lon = -112.531
h = 460.142
a = 75
zb = 12.03
hb = 25
z0 = 0.95
h0 = 23
t = 3.5
name = "Christopher W"
exp = 2

[[sample]]
lat = 33.5372
lon = -112.266
h = 324.909
a = 264
zb = 37.73
hb = 45
z0 = 6.6
h0 = 37
t = 3.5
name = "Brandon N"
exp = 2

[[sample]]
lat = 33.7823
lon = -111.95
h = 641.566
a = 74
hb = 44
h0 = 28
t = 3.5
name = "Anna K"
exp = 2

[[sample]]
lat = 34.7719
lon = -112.5
h = 1441.91
zb = 90
hb = 45
z0 = 90
h0 = 45
t = 7.5
name = "Karla P"
exp = 2

[[sample]]
lat = 33.5759
lon = -111.874
h = 416.226
a = 264
zb = 351.44
hb = 57
z0 = 278.44
h0 = 27
t = 3.5
name = "Gerrianne M"
exp = 3

[[sample]]
lat = 33.4621
lon = -112.354
h = 302.111
a = 244
zb = 14.33
hb = 38
z0 = 353.66
h0 = 17
t = 3.5
name = "Anthony P"
exp = 3

[[sample]]
lat = 34.4534
lon = -112.262
h = 1496.3
a = 279
zb = 84
hb = 40
z0 = 274
h0 = 15
t = 20
name = "Zachary P"
exp = 3

[[sample]]
lat = 33.6087
lon = -112.331
h = 346.813
a = 244
zb = 26.26
hb = 67
z0 = 312.74
h0 = 33
t = 3.5
name = "Sian S"
exp = 3

[[sample]]
lat = 33.5904
lon = -111.991
h = 423.95
a = 252
zb = 26.5
hb = 20
z0 = 16.73
h0 = 17
t = 3.5
name = "Larry F"
exp = 3

[[sample]]
lat = 34.7875
lon = -112.523
h = 1482.6
zb = 149.53
hb = 90
z0 = 275.02
h0 = 90
t = 20
name = "Sheri D"
exp = 3

[[sample]]
lat = 33.4067
lon = -112.013
h = 339.505
a = 75
zb = 348.41
hb = 38
z0 = 330.61
h0 = 21
t = 3.5
name = "Linda B"
exp = 3

[[sample]]
lat = 33.9708
lon = -112.732
h = 628.652
a = 254
zb = 17.97
hb = 60
z0 = 341.57
h0 = 49
t = 3.5
name = "Sheri F"
exp = 3

[[sample]]
lat = 33.6224
lon = -111.998
h = 435.062
a = 255
zb = 8
hb = 25
z0 = 345
h0 = 25
t = 3.5
name = "Shawn P"
exp = 3

[[sample]]
lat = 33.6662
lon = -112.113
h = 421.54
a = 262
zb = 34.84
hb = 25
z0 = 298.62
h0 = 21
t = 3.5
name = "Yadira V"
exp = 3

[[sample]]
lat = 33.5047
lon = -112.135
h = 344.656
a = 253
zb = 14.86
hb = 67
z0 = 331.41
h0 = 55
t = 3.5
name = "Nicole K"
exp = 3

[[sample]]
lat = 33.7774
lon = -111.838
h = 827.877
a = 267
zb = 16.8
hb = 61
z0 = 293.94
h0 = 53
t = 7.5
name = "Daniel H"
exp = 3

[[sample]]
lat = 33.7337
lon = -112.099
h = 469.857
a = 250
zb = 36.74
hb = 23
z0 = 340.14
h0 = 8
t = 3.5
name = "Sheila K"
exp = 3

[[sample]]
lat = 33.7706
lon = -112.112
h = 482.736
a = 289
zb = 25.87
hb = 49
z0 = 355.13
t = 7.5
name = "Molly M"
exp = 3

[[sample]]
lat = 33.5515
lon = -112.238
h = 336.553
a = 262
zb = 355.52
hb = 47
z0 = 309.98
h0 = 33
t = 1.5
name = "Carrie S"
exp = 3

[[sample]]
lat = 33.8491
lon = -112.267
h = 520
a = 266
zb = 10.01
hb = 45
z0 = 356.7
h0 = 42
t = 7.5
name = "Gregg G"
exp = 3

[[sample]]
lat = 34.9093
lon = -112.525
h = 1343.75
zb = 155.74
hb = 90
z0 = 158.67
h0 = 90
t = 20
name = "Rob T"
exp = 4

[[sample]]
lat = 34.5343
lon = -112.238
h = 1392.33
t = 1.5
name = "Jeffrey B"
exp = 4

[[sample]]
lat = 33.6851
lon = -112.204
h = 398.026
a = 267
zb = 15
hb = 31
z0 = 345
h0 = 34
t = 3.5
name = "Terry J"
exp = 4

[[sample]]
lat = 34.8482
lon = -112.459
h = 1337.19
a = 20
hb = 65
t = 7.5
name = "Dee W"
exp = 5

[answer]
lat = 34.818
lon = -112.534
h = 28900
bearing = 252
incidence = 69
speed = 23

[meta]
url_imo = "https://fireball.amsmeteors.org/members/imo_view/event/2020/795"
url_strewnify = "https://www.strewnify.com/prescott/"
